{  
   "id":1151612,
   "name":"Perry's Union Street_çé",
   "address":"1944 Union Street_çé",
   "city":"San Francisco",
   "state":"CA",
   "area":"San Francisco Bay Area",
   "postal_code":"94123",
   "country":"US",
   "phone":"4159229022",
   "lat":37.797904,
   "lng":-122.431332,
   "price":2,
   "reserve_url":"http://www.opentable.com/single.aspx?rid=151612",
   "mobile_reserve_url":"http://mobile.opentable.com/opentable/?restId=151612",
   "image_url":"https://www.opentable.com/img/restimages/151612.jpg"
},
{  
   "id":2141049,
   "name":"ノルマンディ",
   "address":"140ニューモンゴメリーストリート",
   "city":"サンフランシスコ",
   "state":"CA",
   "area":"サンフランシスコ",
   "postal_code":"94103",
   "country":"US",
   "phone":"4159750876",
   "lat":37.786664,
   "lng":-122.399773,
   "price":2,
   "reserve_url":"http://www.opentable.com/single.aspx?rid=141049",
   "mobile_reserve_url":"http://mobile.opentable.com/opentable/?restId=141049",
   "image_url":"https://www.opentable.com/img/restimages/141049.jpg"
},
{  
   "id":322792,
   "name":"渔民的石窟",
   "address":"泰勒街2847号",
   "city":"旧金山",
   "state":"CA",
   "area":"旧金山湾区",
   "postal_code":"94133",
   "country":"美国",
   "phone":"4156737025",
   "lat":37.808407,
   "lng":-122.415845,
   "price":2,
   "reserve_url":"http://www.opentable.com/single.aspx?rid=22792",
   "mobile_reserve_url":"http://mobile.opentable.com/opentable/?restId=22792",
   "image_url":"https://www.opentable.com/img/restimages/22792.jpg"
},
{  
   "id":450962,
   "name":"Sons and Daughters_çé",
   "address":"708 Bush Street_çé",
   "city":"San Francisco",
   "state":"CA",
   "area":"San Francisco Bay Area",
   "postal_code":"94108",
   "country":"US",
   "phone":"4153918311",
   "lat":37.790138,
   "lng":-122.40908,
   "price":4,
   "reserve_url":"http://www.opentable.com/single.aspx?rid=50962",
   "mobile_reserve_url":"http://mobile.opentable.com/opentable/?restId=50962",
   "image_url":"https://www.opentable.com/img/restimages/50962.jpg"
},
{  
   "id":54121,
   "name":"Ristobar_çé",
   "address":"2300 Chestnut St_çé",
   "city":"San Francisco",
   "state":"CA",
   "area":"San Francisco Bay Area",
   "postal_code":"94123",
   "country":"US",
   "phone":"4159236464x",
   "lat":37.80035,
   "lng":-122.441486,
   "price":2,
   "reserve_url":"http://www.opentable.com/single.aspx?rid=4121",
   "mobile_reserve_url":"http://mobile.opentable.com/opentable/?restId=4121",
   "image_url":"https://www.opentable.com/img/restimages/4121.jpg"
},
{  
   "id":6001,
   "name":"Mamacita_çé",
   "address":"2317 Chestnut St_çé",
   "city":"San Francisco",
   "state":"CA",
   "area":"San Francisco Bay Area",
   "postal_code":"94123",
   "country":"US",
   "phone":"4153468494",
   "lat":37.799953,
   "lng":-122.44147,
   "price":2,
   "reserve_url":"http://www.opentable.com/single.aspx?rid=6001",
   "mobile_reserve_url":"http://mobile.opentable.com/opentable/?restId=6001",
   "image_url":"https://www.opentable.com/img/restimages/6001.jpg"
},
{  
   "id":7149539,
   "name":"KUSAKABE_çé",
   "address":"584 Washington Street_çé",
   "city":"San Francisco",
   "state":"CA",
   "area":"San Francisco Bay Area",
   "postal_code":"94111",
   "country":"US",
   "phone":"4157570155",
   "lat":37.795597,
   "lng":-122.402963,
   "price":4,
   "reserve_url":"http://www.opentable.com/single.aspx?rid=149539",
   "mobile_reserve_url":"http://mobile.opentable.com/opentable/?restId=149539",
   "image_url":"https://www.opentable.com/img/restimages/149539.jpg"
},
{  
   "id":87742,
   "name":"The Oak Room - The Westin St. Francis_çé",
   "address":"335 Powell St_çé",
   "city":"San Francisco",
   "state":"CA",
   "area":"San Francisco Bay Area",
   "postal_code":"94102",
   "country":"US",
   "phone":"4157740264",
   "lat":37.787978,
   "lng":-122.408365,
   "price":2,
   "reserve_url":"http://www.opentable.com/single.aspx?rid=7742",
   "mobile_reserve_url":"http://mobile.opentable.com/opentable/?restId=7742",
   "image_url":"https://www.opentable.com/img/restimages/7742.jpg"
},
{  
   "id":9022126,
   "name":"BIN 38_çé",
   "address":"3232 Scott Street_çé",
   "city":"San Francisco",
   "state":"CA",
   "area":"San Francisco Bay Area",
   "postal_code":"94123",
   "country":"US",
   "phone":"4155673838x",
   "lat":37.799744,
   "lng":-122.441095,
   "price":2,
   "reserve_url":"http://www.opentable.com/single.aspx?rid=22126",
   "mobile_reserve_url":"http://mobile.opentable.com/opentable/?restId=22126",
   "image_url":"https://www.opentable.com/img/restimages/22126.jpg"
},
{  
   "id":10916,
   "name":"çé_Benu",
   "address":"çé_22 Hawthorne Street",
   "city":"San Francisco",
   "state":"CA",
   "area":"San Francisco Bay Area",
   "postal_code":"94105",
   "country":"US",
   "phone":"4156854860x",
   "lat":37.785402,
   "lng":-122.399068,
   "price":4,
   "reserve_url":"http://www.opentable.com/single.aspx?rid=45916",
   "mobile_reserve_url":"http://mobile.opentable.com/opentable/?restId=45916",
   "image_url":"https://www.opentable.com/img/restimages/45916.jpg"
}
